97
GPLL3872552N11268594E0250.0,AA*2
$GPRMC,023505.00,A,3857.25752,N,11526.85381,E,0.141,,220415,,,A*7D
$GPVTG,,T,,M,0.141,N,0.261,K,A*22
$GPGGA,023505.00,3857.25752,N,11526.85381,E,1,07,1.28,14.2,M,-11.1,M,42
$PGA,,,2,1,1,1,5,4,1,,,,.3,12,19902
$PSV3,,1,0,7,16,0,1,9019124,01,1,4,633,2*7
GGS,32,0,83616,3,2,3,052,2,1,05,3255612,1*7$GGS,33,0313724,2,2,2,1,1*7
GPL,3572552N,1268581E,250.0,AA60
$GPRMC,023506.00,A,3857.25762,N,11526.85398,E,0.331,,220415,,,A*70
$GPVTG,,T,,M,0.331,N,0.612,K,A*27
$GPGGA,023506.00,3857.25762,N,11526.85398,E,1,07,1.28,13.9,M,-11.1,,*4
GPSAA3,2,8,4,2252431,,,,.7,.2,.9*0
GPS,31,0,1,731,,4,3,9,1,1,4,0111146,38,6*4$PGV,,2101,3,16,2,2,320,2,2,1,55132,5,11,7*1
$PGV,,31,3,3,27,4322331,2*7$GGL,85.276,N152.839,E0356.0,,A6
$GPRMC,023507.00,A,3857.25766,N,11526.85391,E,0.232,,220415,,,A*7E
$GPVTG,,T,,M,0.232,N,0.431,K,A*26
$GPGGA,023507.00,3857.25766,N,11526.85391,E,1,07,1.28,13.4,M,-11.1,,,47
$PGAA,,2,1,1,2,5,431,,,,.3,.2,19902
GPSV3,,1,1,7,16,0,3,901,1,4,01,1146633,2*4$GGS,32,0183616,3,2,3,0,2,2,1,0513255612,8*D$GGS,,310313724,4,22331,1*7
GGL,357256,N1126859,E0250.0,AA64
$GPRMC,023508.00,A,3857.25766,N,11526.85372,E,0.150,,220415,,,A*7B
$GPVTG,,T,,M,0.150,N,0.278,K,A*2A
$GPGGA,023508.00,3857.25766,N,11526.85372,E,1,07,1.28,12.9,M,-11.1,,*4
GPSAA3,2,8141225243,,,,2.7,.2,.9*0
GPS,31,0,1,731,,41329,1,1,0,6111146,38,6*4$PGV,,2101,3,1632226320,2,4,6,55132,5,11,7*1
$PGV,,31,3,3,4724322334,9*7$GGL,85.276,N152.837,E0358.0A,*6
$GPRMC,023509.00,A,3857.25767,N,11526.85360,E,0.246,,220415,,,A*7C
$GPVTG,,T,,M,0.246,N,0.456,K,A*24
$GPGGA,023509.00,3857.25767,N,11526.85360,E,1,07,1.28,12.5,M,-11.1,M,46
$PGA,,,2,1,4,2,5,4,1,,,,.3,12819902
$PGV3,,1,0,0,16,0,3,9019124,01,1,4,633,2*7
GGS,32,0,8,616,3,2,3,05262,1,05,3,55612,1*7$GGS,33,0313727,5,2,3,141*7
GPLL3572567N,1268560E,250.0,,A65
$GPRMC,023510.00,A,3857.25767,N,11526.85353,E,0.276,,220415,,,A*77
$GPVTG,,T,,M,0.276,N,0.511,K,A*25
$GPGGA,023510.00,3857.25767,N,11526.85353,E,1,07,1.28,12.1,M,-11.1,M,*A
$PGA,,32,1,1,1,5,4,1,,,,.3,12819902
$PGV3,,1,0,0,16,0,1,2019124,01,8,4,6,3,2*7
GPS,32,0,8,616,3,2,3,05272,1,05,2,55612,1*7
GGS,33,0,13724,2,2,3,141*7
GPLL3572567N,1568553E,231.0,AA*D
$GPRMC,023511.00,A,3857.25772,N,11526.85352,E,0.247,,220415,,,A*71
$GPVTG,,T,,M,0.247,N,0.458,K,A*2B
$GPGGA,023511.00,3857.25772,N,11526.85352,E,1,07,1.28,11.7,M,-11.1M,*B$GGS,A322181412252,3,,,,2.71.8,.9*2$GGS,,110010736,041329,9,2,0,610,1,6,38257F
$PSV3,,1,1,6,6633226325,7,4,6,5,1,2,6,21187E
GPSV3,,1,1,7,4725322,34,9*6$PGL,87.572,,156.532,,031100A,*6$GPRMC,023512.00,A,3857.25781,N,11526.85343,E,0.227,,220415,,,A*78
$GPVTG,,T,,M,0.227,N,0.421,K,A*23
$GPGGA,023512.00,3857.25781,N,11526.85343,E,1,07,1.28,11.3,M,-11.1M,*4
GGS,A3,21814122,2,3,,,,2371.8,.9*0$GGS,31,0010736,041329,9,2,0,610,1,6,38,57F
$PGV,,21,1,3,6632226,25,7,4,6,5,1,2,5,11187F
$PGV3,,1,3,7,47243,2,34,9*7$PGL,85.271,,152.833,,031200A,*6$GPRMC,023513.00,A,3857.25775,N,11526.85323,E,0.374,,220415,,,A*73
$GPVTG,,T,,M,0.374,N,0.693,K,A*2F
$GPGGA,023513.00,3857.25775,N,11526.85323,E,1,07,1.28,10.9,M,-11.1,M,*7
$PGA,,32,1,1,1,2,4,1,,,,23,1281.9*2
$PGV3,,1,0,0,36,0,1,20,9124006,0,4,6,38257
GPS,32,0,8,616,3,2,6,2527241605,2,5,6,2,1*7
GGS,33,0,13724,2,3,3,141977
$PLL387.575N,1568523E,231.0,AA*A$GPRMC,023514.00,A,3857.25769,N,11526.85299,E,0.483,,220415,,,A*76
$GPVTG,,T,,M,0.483,N,0.895,K,A*28
$GPGGA,023514.00,3857.25769,N,11526.85299,E,1,07,1.28,10.4,M,-11.1M,*0$GGS,A3221814122,2,3,,,,2371.81.9*2$GGS,,110010736,041329,9,2,0,6,0,1,6,38257F
$PSV3,,1,1,6,6632226325,7,4,605,1,2,6,211671
GPSV3,,1,1,7,47243,2,34,977
$PGL387.579,,156.529,,031400A,*6$GPRMC,023515.00,A,3857.25778,N,11526.85280,E,0.535,,220415,,,A*73
$GPVTG,,T,,M,0.535,N,0.991,K,A*21
$GPGGA,023515.00,3857.25778,N,11526.85280,E,1,07,1.28,9.7,M,-11.1,,,72
GPSAA3,2,8,4,2252431,,,2.6,.2,19*0
GPSV3,,0,10731,,4,3,9,1,1,4,0108146633,5*F$GGS,,2101,3,16,2,26320,2,2,6,5512255611,5*2$GGV,,31,3,3,27,5322331,1*6$GGL,35.277,N1126828,E0355.0,,A6
$GPRMC,023516.00,A,3857.25782,N,11526.85267,E,0.335,,220415,,,A*7A
$GPVTG,,T,,M,0.335,N,0.620,K,A*22
$GPGGA,023516.00,3857.25782,N,11526.85267,E,1,07,1.28,9.2,M,-11.1,M,*7$GGS,A3,2181412252,3,,,,2361.8,.9*3$GGS,3110010731,041329,1,2,0,6,1,1,6,382575
$PGV3,,1,1,3,1632226325,7,4,605,0,2,5,211675
$PSV3,,1,3,7,4724322,34,8*6
$PGL,85.572,,152.527,,035600A,*6
$GPRMC,023517.00,A,3857.25782,N,11526.85238,E,0.384,,220415,,,A*7B
$GPVTG,,T,,M,0.384,N,0.712,K,A*28
$GPGGA,023517.00,3857.25782,N,11526.85238,E,1,07,1.28,8.8,M,-11.1,M,*8$GGS,,3221,1,1,2,2,1,,,,2361281.9*3$PGV,,1100,0,36,0,1,20,8124006,1,4,6,382575
GPSV3,,1,8,6,6,3,2,6,2527241605,7,5,6,211*7
GPSV3,,0,13724,2,3,2,141871
$PLL387.572N,156.528,,231.0,AA*D$GPRMC,023518.00,A,3857.25794,N,11526.85234,E,0.265,,220415,,,A*71
$GPVTG,,T,,M,0.265,N,0.491,K,A*2E
$GPGGA,023518.00,3857.25794,N,11526.85234,E,1,07,1.28,8.3,M,-11.1,M,*7$GGS,A3,218141,2,2,3,,,,2361.8,.9*3$GGS,3110010731,041320,7,2,0,6,1,1,6,38257A
$PGV3,,1,1,3,66322,6,25,7,41605,0,2,5,211576
$PSV3,,1,3,7,472,3,2,34,876
$PGL,85.574,,152.524,,035800A,*9$GPRMC,023519.00,A,3857.25811,N,11526.85249,E,0.318,,220415,,,A*73
$GPVTG,,T,,M,0.318,N,0.589,K,A*2D
$GPGGA,023519.00,3857.25811,N,11526.85249,E,1,07,1.28,7.8,M,-11.1,M,*7$GGS,A3221814122,2,3,,,,2361.8,.9*3$GGS,,110010,36,041329,7,2,0,611,1,6,38,57A
$PGV3,,1,1,6,6632226,25,7,4,605,0,2,5,111477
$PSV3,,1,1,7,47243,2,34,8*6
$PGL,85.581,,156.529,,031900A,*6$GPRMC,023520.00,A,3857.25831,N,11526.85289,E,0.537,,220415,,,A*7C
$GPVTG,,T,,M,0.537,N,0.994,K,A*26
$GPGGA,023520.00,3857.25831,N,11526.85289,E,1,07,1.28,7.4,M,-11.1M,*7
GPS,A3,2,8,41225243,,,,2.61.8,.9*0$GGS,31,0,10731,,4,329,1,1,0,61121,6,38,5*A
$PGV,,21,1,3,16,3226320,2,4,6,550,2,5,11,476
$PGV,,,1,3,3,2724322334,8*6$PGL,85.283,,152.828,,0350.0,,*6
$GPRMC,023521.00,A,3857.25861,N,11526.85314,E,0.607,,220415,,,A*7D
$GPVTG,,T,,M,0.607,N,1.124,K,A*24
$GPGGA,023521.00,3857.25861,N,11526.85314,E,1,07,1.28,6.7,M,-11.1,,,71
$PGAA,,2,1,1,1,5,4,1,,,,.3,1281.903
$PSV3,,1,0,7,16,0,1,9017124001,2,4,6,382*7$GGS,32,0,83616,3,2,3,0527241,05,7,5,612,1*1$GGS,3310313724,2,2,3,14197
GPLL3872561N11268514E0252.0,AA65
$GPRMC,023522.00,A,3857.25859,N,11526.85259,E,0.311,,220415,,,A*7F
$GPVTG,,T,,M,0.311,N,0.576,K,A*24
$GPGGA,023522.00,3857.25859,N,11526.85259,E,1,06,1.39,6.5,M,-11.1,M,*2$PGA,,,2,1,1,1,5,1,,,,,.2,.3,3130
GPSV3,,0,1,7,1,,4,3,9,1,1,4,0114146633,2*D$GGS,3210183616,3,2,320,2,2,1,5506255611,4*7$GGV,,3103,3,27,5,22331,1*7$GGL,357285,N1126855,E0252.0,,A6
$GPRMC,023523.00,A,3857.25854,N,11526.85229,E,0.439,,220415,,,A*79
$GPVTG,,T,,M,0.439,N,0.814,K,A*20
$GPGGA,023523.00,3857.25854,N,11526.85229,E,1,06,1.39,6.4,M,-11.1,M,78
$PGAA,,2,8,4,2,5,1,,,,3.2,.3,.1*0
GPS,31,0,1,731,,41329,1,1,0,6114146,38,5*D$GGV,,210183,16,3226320,2,4,6,55062,5,11,6*5
$PGV,,31,3,3,4725322331,9*6$GGL,85.285,N152.822,E0353.0A,*6
$GPRMC,023524.00,A,3857.25853,N,11526.85219,E,0.505,,220415,,,A*74
$GPVTG,,T,,M,0.505,N,0.935,K,A*2C
$GPGGA,023524.00,3857.25853,N,11526.85219,E,1,06,1.39,6.3,M,-11.1,,,7
GPSAA,,2,8,4,2,531,,,,3.21.9,.2*6$GGS,,110010736,041329,1,2,0,611,1,6,38257C
$PGV3,,1,1,3,6633226325,7,4,6,5,0,2,6,211675
$PSV3,,1,3,7,4725322,34,9*6$PGL,87.583,,152.529,,035400A,*6
$GPRMC,023525.00,A,3857.25848,N,11526.85196,E,0.346,,220415,,,A*7A
$GPVTG,,T,,M,0.346,N,0.641,K,A*21
$GPGGA,023525.00,3857.25848,N,11526.85196,E,1,06,1.39,6.2,M,-11.1,,,72
GPSAA,,2,8,4,2,5,1,,,,3.2,.3,.1*0
GPS,31,0010731,,41329,1,1,0,6114146,38,5*D$PGV,,,1,1,3,16,3226320,2,4,6,55062,5,11,6*5
$PGV3,,1,3,3,4725322331,8*7$GGL,85.284,N152.816,,0355.0A,*6
$GPRMC,023526.00,A,3857.25837,N,11526.85178,E,0.492,,220415,,,A*7F
$GPVTG,,T,,M,0.492,N,0.912,K,A*26
$GPGGA,023526.00,3857.25837,N,11526.85178,E,1,06,1.39,6.3,M,-11.1,M,*8$GGA,,32218141,2,3,,,,,.4,1393.206
$PGV3,,1,0,7,16,0,1,9017124001,4,4,6,382*7
GPS,32,0,83616,3,2,3,0527241,05,6,5,612,1*7
GGS,3310313724,2,2,3,14187
GPLL3872537N,1568578E0252.0,AA*9
$GPRMC,023527.00,A,3857.25853,N,11526.85196,E,0.280,,220415,,,A*79
$GPVTG,,T,,M,0.280,N,0.519,K,A*24
$GPGGA,023527.00,3857.25853,N,11526.85196,E,1,06,1.39,6.3,M,-11.1,M,*B$GGA,,322181,1,2,1,,,,,.4,.3,31206
$PSV3,,1,0,7,16,0,1,90151,4,01,4,46633,2*7$GGS,32,0183616,3,2,3,0,2,2,1,05,6255612,1*4$GGS,3310313724,5,2,331,1*7
GGL,3572553N11268596E0252.0,AA6A
$GPRMC,023528.00,A,3857.25859,N,11526.85210,E,0.438,,220415,,,A*74
$GPVTG,,T,,M,0.438,N,0.811,K,A*24
$GPGGA,023528.00,3857.25859,N,11526.85210,E,1,07,1.39,6.3,M,-11.1,,,72
$PGA,,,2,1,1,1,5,4,1,,,,.4,13,31200
$PSV3,,1,0,7,16,0,1,9015124001,6,46633,2*7$GGS,32,0,83616,3,2,3,0527241,05,8255612,1*A$GGS,3310313724,2,2,3,14177
GPL,3572559N11268510E0252.0,AA62
$GPRMC,023529.00,A,3857.25864,N,11526.85225,E,0.391,,220415,,,A*79
$GPVTG,,T,,M,0.391,N,0.724,K,A*29
$GPGGA,023529.00,3857.25864,N,11526.85225,E,1,07,1.39,6.4,M,-11.1,M,*7$GGS,A3221814122,2,3,,,,3421.9,.1*0$GGS,,110010,36,041329,4,2,0,611,1,6,38,57D
$PGV3,,1,1,6,6633226,25,7,4,6,5,0,2,5,11167B
$PSV3,,1,1,7,47253,2,34,6*9
$PGL,85.284,,156.525,,032900A,*6$GPRMC,023530.00,A,3857.25865,N,11526.85233,E,0.218,,220415,,,A*77
$GPVTG,,T,,M,0.218,N,0.404,K,A*28
$GPGGA,023530.00,3857.25865,N,11526.85233,E,1,07,1.39,6.5,M,-11.1,M,*3$GGS,,3221,1,1,2,2,1,,,,3421393.2*0$PGV,,1100,0,36,0,1,20,4124006,1,4,6,38247C
GPSV3,,1,8,6,6,3,2,6,2528241605,8,5,6,211*7
GPSV3,,0,13724,2,3,2,14157A
$PLL387.585N,156.523E,233.0,AA*5$GPRMC,023531.00,A,3857.25861,N,11526.85227,E,0.077,,220415,,,A*7C
$GPVTG,,T,,M,0.077,N,0.143,K,A*25
$GPGGA,023531.00,3857.25861,N,11526.85227,E,1,07,1.39,6.4,M,-11.1,,,7
GPSAA,,2,8,4,2,5,431,,,,.4,.3,31*0
GPSV31,0,1,7,1,,4,3,901,1,4,01,6146638,4*D$GGV,,210183616,3,2,3,0,2,2,1,0508255,11,5*7$PGV,,3103,3,27,4,2,331,1*7
GGL,35.286,N112.822,E0251.0,,A65
$GPRMC,023532.00,A,3857.25859,N,11526.85222,E,0.213,,220415,,,A*71
$GPVTG,,T,,M,0.213,N,0.394,K,A*2D
$GPGGA,023532.00,3857.25859,N,11526.85222,E,1,07,1.39,6.3,M,-11.1,M,78
$PGAA,,2,1,4,2,5,4,1,,,,.4,13,31200
$PSV3,,1,1,7,16,4,3,90141,4,01,6,4,633,2*7
GGS,32,0183616,3,2,3,052,2,1,05,8255612,1*6$GGS,3310313727,4,2,3,1,1*7
GPL,3572559N11268522E0253.0,,A68
$GPRMC,023533.00,A,3857.25858,N,11526.85223,E,0.255,,220415,,,A*72
$GPVTG,,T,,M,0.255,N,0.472,K,A*20
$GPGGA,023533.00,3857.25858,N,11526.85223,E,1,07,1.39,6.2,M,-11.1,M,78
$PGA,,,2,1,4,2,5,4,1,,,,.4,13,31200
$PGV3,,1,0,0,16,0,3,9013124,01,6,4,633,2*7
GGS,32,0,83616,3,2,3,052,2,1,05,8,55612,1*7$GGS,33,0313727,4,2,3,1,1*7
GPL,3572558N,1268523E,253.0,,A69
$GPRMC,023534.00,A,3857.25855,N,11526.85213,E,0.041,,220415,,,A*7C
$GPVTG,,T,,M,0.041,N,0.077,K,A*26
$GPGGA,023534.00,3857.25855,N,11526.85213,E,1,07,1.39,6.2,M,-11.1,,,71
$PGAA,,2,1,1,2,5,4,1,,,,.4,.3,31200
GPSV3,,1,1,7,16,0,3,9014124,01,8,46633,2*5$GGS,32,0183616,3,2,3,05282,1,05,0255612,5*E$GGS,,310313724,3,2,3,141*7
GGL,357255,N1126851,E0253.0,,A60
$GPRMC,023535.00,A,3857.25847,N,11526.85209,E,0.239,,220415,,,A*78
$GPVTG,,T,,M,0.239,N,0.442,K,A*29
$GPGGA,023535.00,3857.25847,N,11526.85209,E,1,07,1.39,6.3,M,-11.1,M,*7
GGS,A3,2,814122,2,3,,,,3421.9,.1*0$GGS,3110010731,041329,4,2,0,6,1,1,6,38227F
$PGV,,,1,1,3,1633226,25,8,4,605,1,2,5,21167D
$PSV3,,1,3,7,47233,2,34,4*D
$PGL,85.587,,152.529,,035500A,*6$GPRMC,023536.00,A,3857.25833,N,11526.85184,E,0.471,,220415,,,A*74
$GPVTG,,T,,M,0.471,N,0.872,K,A*2C
$GPGGA,023536.00,3857.25833,N,11526.85184,E,1,07,1.28,5.8,M,-11.1,M,77
$PGA,,,2,1,1,1,5,4,1,,,,.3,1281.802
$PSV3,,1,0,0,16,0,1,2015124006,7,4,6,382*7
GGS,32,0,83616,3,2,3,0527241605,0,5,612,1*7$GGS,33,0313724,2,2,3,14177E
GPLL3872533N,1268584E,253.0,AA*F
$GPRMC,023537.00,A,3857.25842,N,11526.85177,E,0.375,,220415,,,A*7C
$GPVTG,,T,,M,0.375,N,0.695,K,A*28
$GPGGA,023537.00,3857.25842,N,11526.85177,E,1,07,1.28,5.1,M,-11.1,M,*5$PGA,,32,1,1,1,5,4,1,,,,.3,1281.8*2
$PGV,,11,0,0,16,0,1,2014124006,9,4,6,382*7
GPSV32,0,8,616,3,2,3,0528241605,0,5,6,2,1*7
GPS,33,0,13724,2,2,3,14177
GPLL387.542N,156.577E,233.0,AA*4
$GPRMC,023538.00,A,3857.25858,N,11526.85184,E,0.222,,220415,,,A*77
$GPVTG,,T,,M,0.222,N,0.411,K,A*25
$GPGGA,023538.00,3857.25858,N,11526.85184,E,1,07,1.28,4.6,M,-11.1,,*7
GPSAA3,2,8,4,2252431,,,2.6,.8,.9*0
GGS,31,0,1,731,,4,3,9,1,1,4,6119146,38,1*7$PGV,,2101,3,16,3,26320,2,2,6,55102,5,11,6*2
$PGV,,31,3,3,27,2322331,7*F$GGL,85.285,N152.818,E0358.0,,A6
$GPRMC,023539.00,A,3857.25856,N,11526.85177,E,0.224,,220415,,,A*72
$GPVTG,,T,,M,0.224,N,0.415,K,A*27
$GPGGA,023539.00,3857.25856,N,11526.85177,E,1,07,1.28,4.0,M,-11.1,M,*7
GPSAA3,2,8141225243,,,,2.6,.8,.9*0
GGS,31,0,10731,,41329,1,2,0,61191,6,38,1*7$PGV,,2101,3,16,3226320,8,4,6,551,2,5,10,67C
$PGV,,31,3,3,4722322334,6*E$GGL,85.285,,152.817,E0359.0A,*6
$GPRMC,023540.00,A,3857.25881,N,11526.85203,E,0.282,,220415,,,A*7A
$GPVTG,,T,,M,0.282,N,0.523,K,A*2F
$GPGGA,023540.00,3857.25881,N,11526.85203,E,1,07,1.28,3.4,M,-11.1,M,*9$GGA,,322181,1,2,2,3,,,,2361.8,.8*2$GGS,,1100,0,36,041,20,6,2,006,1,1,6,382277
$PSV3,,0,8,